City_ID,City,Lat,Lng,Max Temp,Humidity,Cloudiness,Wind Speed,Country,Date
0,sinabang,2.4803,96.3801,80.98,79,98,2.28,ID,1690417900
1,gondal,21.9667,70.8,77.41,94,100,9.84,IN,1690417925
2,port-aux-francais,-49.35,70.2167,40.03,77,90,38.7,TF,1690417925
3,mermoz boabab,14.7065,-17.4758,83.98,79,0,0.0,SN,1690417925
4,avarua,-21.2078,-159.775,75.25,64,100,8.05,CK,1690417925
5,waitangi,-43.9535,-176.5597,48.81,87,96,4.0,NZ,1690417926
6,grytviken,-54.2811,-36.5092,33.17,98,100,11.05,GS,1690417926
7,uruacu,-14.5247,-49.1408,74.43,31,0,3.02,BR,1690417713
8,punta arenas,-53.15,-70.9167,32.31,76,12,10.74,CL,1690417879
9,tsetserleg,47.475,101.4542,61.79,61,25,4.03,MN,1690417926
10,kununurra,-15.7667,128.7333,69.78,49,8,4.61,AU,1690417927
11,puerto ayora,-0.7393,-90.3518,76.55,93,68,7.0,EC,1690417878
12,porto novo,6.4965,2.6036,78.62,94,100,5.5,BJ,1690417927
13,port elizabeth,-33.918,25.5701,57.49,67,0,6.91,ZA,1690417927
14,kone,-21.0595,164.8658,75.38,39,0,8.88,NC,1690417927
15,westport,41.1415,-73.3579,81.01,76,0,11.5,US,1690417845
16,bethel,41.3712,-73.414,79.75,78,13,6.02,US,1690417928
17,hobyo,5.3505,48.5268,75.81,84,96,22.41,SO,1690417928
18,severo-yeniseyskiy,60.3725,93.0408,60.35,94,100,2.57,RU,1690417928
19,tralee,52.2704,-9.7026,60.53,98,100,8.23,IE,1690417675
20,adamstown,-25.066,-130.1015,67.8,62,59,14.52,PN,1690417929
21,aasiaat,68.7098,-52.8699,36.64,95,32,7.45,GL,1690417930
22,papatowai,-46.5619,169.4708,44.04,71,100,22.06,NZ,1690417930
23,ilulissat,69.2167,-51.1,50.02,57,0,5.75,GL,1690417930
24,puerto natales,-51.7236,-72.4875,29.75,92,100,2.98,CL,1690417931
25,san patricio,28.017,-97.5169,92.17,65,7,15.86,US,1690417931
26,yelets,52.6237,38.5017,66.27,85,12,6.22,RU,1690417932
27,iqaluit,63.7506,-68.5145,46.13,81,40,2.3,CA,1690417932
28,coquimbo,-29.9533,-71.3436,56.93,88,0,6.91,CL,1690417923
29,bredasdorp,-34.5322,20.0403,48.0,91,0,4.38,ZA,1690417932
30,thompson,55.7435,-97.8558,60.96,63,100,8.05,CA,1690417933
31,arraial do cabo,-22.9661,-42.0278,70.21,86,58,21.99,BR,1690417750
32,la mojonera,37.2923,-2.4373,69.85,88,44,3.85,ES,1690417933
33,mil'kovo,55.6078,37.7956,63.91,92,92,4.99,RU,1690417933
34,port lincoln,-34.7333,135.8667,61.84,56,100,19.17,AU,1690417934
35,chuzhou,32.3219,118.2978,84.36,75,44,11.3,CN,1690417934
36,utrik,11.2278,169.8474,83.12,78,100,18.88,MH,1690417934
37,edinburgh of the seven seas,-37.0676,-12.3116,51.35,54,52,24.29,SH,1690417934
38,palmas,-10.2128,-48.3603,75.07,60,0,3.44,BR,1690417860
39,broome,42.2506,-75.833,78.55,73,100,4.0,US,1690417935
40,vuktyl,63.8567,57.3094,57.33,83,0,3.22,RU,1690417935
41,albany,42.6001,-73.9662,79.45,75,100,4.18,US,1690417869
42,blackmans bay,-43.0167,147.3167,52.52,81,100,4.61,AU,1690417935
43,lihue,21.9789,-159.3672,85.59,64,20,13.8,US,1690417936
44,vila velha,-20.3297,-40.2925,69.94,90,20,3.44,BR,1690417936
45,nar'yan-mar,67.6713,53.087,62.67,69,100,5.39,RU,1690417936
46,colonia,50.9333,6.95,63.97,70,0,9.22,DE,1690417696
47,st. john's,47.5649,-52.7093,70.99,78,75,23.02,CA,1690417936
48,ushuaia,-54.8,-68.3,33.46,69,0,8.05,AR,1690417937
49,hadibu,12.65,54.0333,77.09,80,60,25.32,YE,1690417937
50,alice springs,-23.7,133.8833,65.75,55,100,4.61,AU,1690417852
51,ust-nera,64.5667,143.2,57.34,60,100,7.4,RU,1690417937
52,invercargill,-46.4,168.35,45.57,65,100,16.96,NZ,1690417937
53,whitehorse,60.7161,-135.0538,76.01,49,75,5.01,CA,1690417849
54,wuyishan,28.0047,117.8114,85.32,64,18,4.09,CN,1690417938
55,kpandu,6.9954,0.2931,74.01,93,32,5.41,GH,1690417938
56,mek'ele,13.4967,39.4753,61.18,84,88,4.23,ET,1690417938
57,koysinceq,36.0821,44.6278,84.85,19,0,4.52,IQ,1690417938
58,poyang,28.9924,116.6675,84.67,71,0,12.26,CN,1690417939
59,la paz,-16.5,-68.15,44.58,45,1,8.05,BO,1690417939
60,tiksi,71.6872,128.8694,46.71,70,21,5.39,RU,1690417939
61,nova sintra,14.8667,-24.7167,73.62,85,65,14.61,CV,1690417939
62,uturoa,-16.7333,-151.4333,78.24,83,51,8.68,PF,1690417939
63,arusha,-3.3667,36.6833,61.86,77,40,23.02,TZ,1690417940
64,east london,-33.0153,27.9116,64.51,66,76,13.33,ZA,1690417774
65,yellowknife,62.456,-114.3525,77.52,31,75,11.5,CA,1690417940
66,stonehaven,56.9637,-2.2118,56.23,93,100,7.56,GB,1690417940
67,holualoa,19.6228,-155.9522,82.24,80,75,13.8,US,1690417941
68,beyneu,45.3167,55.2,78.64,39,0,9.8,KZ,1690417941
69,dakhla,23.6848,-15.958,67.75,91,0,23.94,EH,1690417941
70,kapuskasing,49.4169,-82.4331,71.69,68,40,1.14,CA,1690417941
71,iskateley,67.6803,53.1512,62.55,70,100,5.08,RU,1690417941
72,college,64.8569,-147.8028,83.07,55,75,4.61,US,1690417942
73,tynda,55.1667,124.7167,74.37,62,13,3.58,RU,1690417942
74,buulobarde,3.8538,45.5674,72.72,84,51,17.34,SO,1690417942
75,joshimath,30.5667,79.5667,71.83,89,98,0.34,IN,1690417942
76,shira,54.4911,89.9531,64.67,61,9,1.79,RU,1690417942
77,margaret river,-33.95,115.0667,55.27,72,95,13.22,AU,1690417943
78,pisco,-13.7,-76.2167,66.25,77,0,13.8,PE,1690417803
79,crane,31.3974,-102.3501,93.6,25,6,17.34,US,1690417943
80,mildura,-34.2,142.15,60.08,64,0,18.01,AU,1690417943
81,talnakh,69.4865,88.3972,72.21,57,79,5.61,RU,1690417943
82,polyarnyy,69.1989,33.4478,50.32,96,100,2.48,RU,1690417944
83,vorgashor,67.5833,63.95,55.42,95,100,5.84,RU,1690417944
84,tura,25.5198,90.2201,75.13,97,100,5.14,IN,1690417944
85,pyt-yakh,60.7499,72.8582,60.87,93,90,6.55,RU,1690417944
86,fort leonard wood,37.7057,-92.1572,89.78,51,0,9.22,US,1690417945
87,ilhabela,-23.7781,-45.3581,72.16,63,21,3.58,BR,1690417945
88,karratha,-20.7377,116.8463,70.0,55,99,11.14,AU,1690417945
89,saipan,15.1355,145.701,81.64,100,75,16.11,MP,1690417945
90,sitka,57.0531,-135.33,60.69,82,100,5.75,US,1690417945
91,hede,33.7681,120.2517,84.42,79,19,12.48,CN,1690417945
92,dunedin,-45.8742,170.5036,41.47,90,99,24.7,NZ,1690417741
93,adrar,20.5022,-10.0711,98.13,9,23,25.77,MR,1690417946
94,san antonio de pale,-1.4014,5.6325,73.27,90,100,10.38,GQ,1690417946
95,nemuro,43.3236,145.575,66.47,93,100,5.95,JP,1690417946
96,kerikeri,-35.2268,173.9474,59.92,80,5,4.0,NZ,1690417946
97,lebu,-37.6167,-73.65,47.64,85,71,2.28,CL,1690417946
98,ust-tsilma,65.441,52.1498,58.12,87,100,3.15,RU,1690417947
99,constantia,44.1833,28.65,70.7,79,97,19.15,RO,1690417947
100,isafjordur,66.0755,-23.124,44.62,85,99,10.67,IS,1690417947
101,haiku-pauwela,20.9219,-156.3051,86.02,61,40,25.32,US,1690417947
102,yeraliyev,43.2,51.65,75.67,53,0,7.29,KZ,1690417948
103,chakradharpur,22.7,85.6333,79.18,92,94,7.31,IN,1690417948
104,markovo,57.3206,107.0881,68.95,83,100,2.26,RU,1690417948
105,at taj,24.2049,23.2857,80.96,16,99,6.91,LY,1690417936
106,cabo san lucas,22.8909,-109.9124,93.61,69,20,10.36,MX,1690417749
107,stanley,54.868,-1.6985,56.28,94,75,3.44,GB,1690417949
108,udachny,66.4167,112.4,64.45,67,100,9.57,RU,1690417949
109,kodiak,57.79,-152.4072,60.31,77,100,6.91,US,1690417949
110,guiuan,11.0333,125.7247,84.13,75,94,18.63,PH,1690417949
111,grand falls-windsor,48.9332,-55.6649,64.42,93,41,5.84,CA,1690417949
112,cuauhtemoc,28.4167,-106.8667,84.72,17,2,15.43,MX,1690417950
113,afaahiti,-17.75,-149.2833,75.07,84,81,6.42,PF,1690417950
114,san rafael,-34.6177,-68.3301,51.48,45,100,5.59,AR,1690417844
115,bilibino,68.0546,166.4372,52.32,69,100,4.32,RU,1690417938
116,klyuchi,52.2667,79.1667,71.69,41,100,6.55,RU,1690417950
117,oodweyne,9.4092,45.064,71.04,58,18,21.47,SO,1690417950
118,potiskum,11.7091,11.0694,81.54,55,80,13.42,NG,1690417951
119,camacupa,-12.0167,17.4833,58.68,41,1,3.31,AO,1690417951
120,al burayqah,30.4062,19.5739,83.53,56,0,3.69,LY,1690417951
121,anadyr,64.75,177.4833,54.1,87,75,13.42,RU,1690417951
122,rio grande,-32.035,-52.0986,57.31,86,4,15.86,BR,1690417951
123,quellon,-43.1167,-73.6167,45.05,92,100,5.19,CL,1690417952
124,weno,7.4515,151.8468,82.9,74,24,5.61,FM,1690417952
125,axim,4.8699,-2.2405,76.01,92,100,5.91,GH,1690417952
126,bamboo flat,11.7,92.7167,80.69,89,40,6.91,IN,1690417952
127,san mateo del mar,16.2,-95.0,84.22,74,13,30.27,MX,1690417953
128,naberera,-4.2,36.9333,54.27,93,8,6.78,TZ,1690417953
129,petropavlovsk-kamchatsky,53.0452,158.6483,72.19,60,20,6.71,RU,1690417937
130,kabalo,-6.05,26.9167,72.28,33,97,4.09,CD,1690417953
131,lewistown,40.5992,-77.5714,81.34,73,0,0.0,US,1690417954
132,aginskoye,51.1,114.53,65.84,71,100,11.18,RU,1690417954
133,sona,45.4388,10.8255,67.44,56,20,10.36,IT,1690417954
134,ngara,-2.5122,30.6558,55.04,40,23,2.42,TZ,1690417954
135,peniche,39.3558,-9.3811,66.29,87,92,18.52,PT,1690417955
136,kourou,5.1552,-52.6478,77.05,85,50,6.13,GF,1690417807
137,hawaiian paradise park,19.5933,-154.9731,83.73,79,40,9.22,US,1690417955
138,minjur,13.2667,80.2667,82.42,71,100,15.66,IN,1690417955
139,bafq,31.6128,55.4107,87.6,14,99,2.3,IR,1690417955
140,zaozersk,69.4005,32.4476,50.86,94,100,1.41,RU,1690417956
141,shimoda,34.6667,138.95,89.1,65,22,4.74,JP,1690417956
142,nuku'alofa,-21.1333,-175.2,73.74,56,20,8.05,TO,1690417956
143,santa terezinha,-29.9002,-50.0904,61.52,88,100,12.15,BR,1690417956
144,new norfolk,-42.7826,147.0587,53.71,69,100,3.76,AU,1690417956
145,wailua homesteads,22.0669,-159.378,84.99,72,20,13.8,US,1690417957
146,celestun,20.8667,-90.4,83.62,73,100,17.87,MX,1690417957
147,georgetown,5.4112,100.3354,80.53,94,40,2.3,MY,1690417680
148,pangai,-19.8,-174.35,73.51,68,75,5.75,TO,1690417957
149,arteche,12.2645,125.4048,83.59,72,100,9.22,PH,1690417724
150,longjiang,47.3303,123.1836,74.89,89,100,2.1,CN,1690417957
151,bang saphan,11.2126,99.5117,80.26,83,99,8.19,TH,1690417958
152,kingston,17.997,-76.7936,86.95,79,20,3.44,JM,1690417948
153,xinyuan,37.3,99.0,51.69,71,15,4.18,CN,1690417958
154,trevelin,-43.0858,-71.4639,37.76,93,100,1.77,AR,1690417958
155,enewetak,11.3474,162.3373,83.3,76,100,13.89,MH,1690417958
156,inarajan village,13.2736,144.7484,79.0,97,100,14.85,GU,1690417958
157,chonchi,-42.6128,-73.8092,46.11,97,100,2.06,CL,1690417959
158,bodaybo,57.8506,114.1933,76.21,65,4,1.54,RU,1690417959
159,huanren,41.2647,125.3667,75.83,88,100,4.7,CN,1690417959
160,tazovsky,67.4667,78.7,63.84,81,11,2.55,RU,1690417959
161,itacoatiara,-3.1431,-58.4442,79.18,56,0,0.63,BR,1690417959
162,floro,61.5996,5.0328,58.96,94,100,5.75,NO,1690417678
163,yoichi,43.2039,140.7703,80.58,72,100,1.57,JP,1690417960
164,mwene-ditu,-7.0,23.45,67.95,34,6,3.8,CD,1690417960
165,usogorsk,63.4106,48.6872,57.72,76,100,5.55,RU,1690417960
166,dongcun,36.7767,121.1597,80.8,83,100,11.72,CN,1690417960
167,malango,-2.9627,119.9001,73.81,76,24,1.99,ID,1690417960
168,kirensk,57.7853,108.1119,71.91,72,100,2.59,RU,1690417960
169,bereznik,62.8551,42.7072,57.06,99,100,4.03,RU,1690417665
170,razole,16.4833,81.8333,76.5,91,100,12.75,IN,1690417961
171,daru,-9.0763,143.2092,79.11,81,40,17.4,PG,1690417961
172,naha,26.2125,127.6811,84.47,79,100,10.36,JP,1690417961
173,ribeira grande,38.5167,-28.7,73.78,95,35,5.99,PT,1690417961
174,solikamsk,59.6196,56.7729,54.16,88,99,3.47,RU,1690417934
175,hamilton,39.1834,-84.5333,86.41,70,75,16.11,US,1690417962
176,la mira,18.035,-102.3266,84.38,72,29,5.41,MX,1690417962
177,olonkinbyen,70.9221,-8.7187,40.46,90,100,11.21,SJ,1690417962
178,queenstown,-31.8976,26.8753,50.38,86,100,3.47,ZA,1690417962
179,novyy urgal,51.0736,132.5642,75.9,64,36,0.94,RU,1690417933
180,luderitz,-26.6481,15.1594,54.36,71,0,7.99,NA,1690417963
181,hotan,37.0997,79.9269,81.99,30,7,3.22,CN,1690417963
182,cooma,-36.2333,149.1333,56.44,27,0,7.74,AU,1690417870
183,vorkuta,67.5,64.0,56.37,95,100,5.82,RU,1690417963
184,bridlington,54.0831,-0.1919,60.03,93,100,5.99,GB,1690417963
185,jamestown,42.097,-79.2353,71.19,91,100,11.5,US,1690417964
186,island harbour,50.724,-1.2758,62.92,95,100,8.99,GB,1690417964
187,xichang,27.8964,102.2634,70.66,86,98,2.06,CN,1690417964
188,lagodekhi,41.8268,46.2767,72.5,74,21,2.33,GE,1690417964
189,alaghsas,17.0187,8.0168,88.45,35,60,7.67,NE,1690417964
190,nadym,65.5333,72.5167,67.69,75,16,7.14,RU,1690417936
191,i-n-salah,27.1935,2.4607,100.42,13,1,7.25,DZ,1690417964
192,olinda,-8.0089,-34.8553,76.73,88,75,6.91,BR,1690417965
193,fes,34.0372,-4.9998,71.85,60,0,3.44,MA,1690417965
194,port-vila,-17.7338,168.3219,76.6,53,75,19.57,VU,1690417965
195,chak one hundred twenty nine left,30.4333,73.05,83.34,82,100,7.54,PK,1690417965
196,lubuklinggau,-3.3,102.8667,76.69,82,60,1.34,ID,1690417965
197,tinogasta,-28.0632,-67.5649,50.97,56,0,3.02,AR,1690417965
198,plettenberg bay,-34.0527,23.3716,52.84,85,14,6.71,ZA,1690417966
199,la passe,45.5549,-0.8967,66.97,94,12,6.4,FR,1690417966
200,broken hill,-31.95,141.4333,63.86,35,2,20.94,AU,1690417966
201,thinadhoo,0.5333,72.9333,83.73,77,100,13.69,MV,1690417826
202,tanque verde,32.2517,-110.7373,110.03,19,17,13.8,US,1690417822
203,chenaran,36.6455,59.1212,72.61,59,1,7.23,IR,1690417967
204,atafu village,-8.5421,-172.5159,83.44,75,100,18.05,TK,1690417967
205,wirksworth,53.0823,-1.5739,59.72,96,100,9.98,GB,1690417967
206,kirakira,-10.4544,161.9205,81.99,81,100,14.32,SB,1690417967
207,mount gambier,-37.8333,140.7667,55.44,59,1,12.57,AU,1690417967
208,pitimbu,-7.4706,-34.8086,75.79,86,51,10.76,BR,1690417967
209,badger,64.8,-147.5333,82.98,54,75,4.61,US,1690417968
210,sola,-13.8833,167.55,79.47,78,100,17.27,VU,1690417968
211,tahe,52.3333,124.7333,80.58,48,98,6.89,CN,1690417968
212,san andres,12.5847,-81.7006,84.22,79,20,11.5,CO,1690417968
213,misratah,32.3754,15.0925,81.72,69,0,15.35,LY,1690417968
214,dakoro,14.5106,6.765,88.93,49,100,19.01,NE,1690417968
215,buenaventura,3.8801,-77.0312,77.05,91,100,3.29,CO,1690417969
216,port mathurin,-19.6833,63.4167,74.75,78,88,16.84,MU,1690417969
217,bermeo,43.4209,-2.7215,67.24,89,0,4.23,ES,1690417969
218,arno,60.1167,18.6333,56.68,76,87,8.77,SE,1690417969
219,beberibe,-4.1797,-38.1306,78.69,83,5,13.89,BR,1690417969
220,minas,-34.3759,-55.2377,45.39,92,5,9.78,UY,1690417970
221,ola,59.5833,151.2833,61.14,98,100,9.93,RU,1690417970
222,barra,-11.0894,-43.1417,73.54,53,71,5.73,BR,1690417970
223,malanje,-9.5402,16.341,64.99,70,2,4.23,AO,1690417970
224,harnai,30.1005,67.9374,80.64,73,9,1.03,PK,1690417970
225,jiayuguan,39.8167,98.3,83.12,17,0,1.36,CN,1690417975
226,rongelap,11.1635,166.8941,82.72,81,100,18.19,MH,1690417976
227,hermanus,-34.4187,19.2345,53.47,83,0,6.55,ZA,1690417976
228,fonte boa,-2.4959,-66.2662,78.51,77,69,2.04,BR,1690417976
229,childress,34.4264,-100.204,98.92,20,0,13.8,US,1690417734
230,kabinda,-6.1333,24.4833,64.96,36,17,3.71,CD,1690417976
231,inari,68.906,27.0288,52.0,93,74,1.97,FI,1690417710
232,guichon,-32.35,-57.2,47.12,85,3,5.91,UY,1690417978
233,saint-philippe,-21.3585,55.7679,67.59,82,53,11.23,RE,1690417978
234,longyearbyen,78.2186,15.6401,51.64,76,75,5.75,SJ,1690417978
235,la sarre,48.8002,-79.1996,61.92,97,100,8.23,CA,1690417978
236,verkhnevilyuysk,63.4453,120.3167,67.57,40,100,5.64,RU,1690417979
237,port isabel,26.0734,-97.2086,93.29,65,0,18.41,US,1690417979
238,pirot,43.1531,22.5861,60.28,95,100,5.84,RS,1690417979
239,kotlas,61.2611,46.6556,59.45,98,100,6.02,RU,1690417979
240,dudinka,69.4058,86.1778,72.63,63,67,2.62,RU,1690417979
241,kollam,8.8833,76.6,75.85,87,35,4.74,IN,1690417979
242,simpang,-1.2667,104.0833,78.4,84,92,5.91,ID,1690417980
243,west island,-12.1568,96.8225,75.18,83,75,24.16,CC,1690417980
244,port saint john's,-31.6229,29.5448,65.5,58,50,20.78,ZA,1690417980
245,saudarkrokur,65.7461,-19.6394,46.06,91,32,6.51,IS,1690417981
246,as sulayyil,20.4607,45.5779,86.25,9,100,8.79,SA,1690417981
247,flying fish cove,-10.4217,105.6791,76.8,77,62,19.91,CX,1690417981
248,yuzhno-kurilsk,44.0306,145.8556,70.9,80,100,5.91,RU,1690417981
249,tidjikja,18.5564,-11.4271,88.52,38,5,17.45,MR,1690417982
250,san jose del cabo,23.0589,-109.6977,93.6,61,20,23.02,MX,1690417982
251,livingstone,-17.8419,25.8543,55.08,64,0,3.24,ZM,1690417983
252,nabire,-3.3667,135.4833,84.33,70,55,3.44,ID,1690417983
253,brookings,44.3114,-96.7984,95.0,40,0,5.75,US,1690417983
254,qaqortoq,60.7167,-46.0333,43.95,85,91,3.09,GL,1690417983
255,colon,9.3592,-79.9014,79.56,88,100,5.1,PA,1690417983
256,bel ombre,-4.6167,55.4167,76.84,88,40,9.22,SC,1690417984
257,illapel,-31.6308,-71.1653,57.67,74,100,2.46,CL,1690417984
258,fale old settlement,-9.3852,-171.2468,83.32,73,16,18.03,TK,1690417984
259,saint-germain-du-puy,47.1,2.4833,64.67,82,55,8.05,FR,1690417984
260,yanykurgan,43.915,67.2481,91.54,23,100,19.95,KZ,1690417984
261,lompoc,34.6391,-120.4579,72.84,82,100,11.99,US,1690417984
262,vadso,70.0744,29.7487,50.16,93,100,2.3,NO,1690417985
263,benguela,-12.5763,13.4055,69.21,81,98,5.08,AO,1690417985
264,codrington,-38.2667,141.9667,55.47,66,1,17.22,AU,1690417985
265,khandyga,62.6667,135.6,70.48,33,0,12.26,RU,1690417985
266,port alfred,-33.5906,26.891,62.44,77,100,6.71,ZA,1690417986
267,melouza,35.98,4.1867,73.09,50,0,6.08,DZ,1690417986
268,galle,6.0367,80.217,78.98,86,100,6.29,LK,1690417986
269,skowhegan,44.7651,-69.7192,77.56,87,100,4.56,US,1690417986
270,gaiman,-43.2897,-65.4929,38.95,59,29,5.57,AR,1690417987
271,pasuquin,18.3328,120.6177,78.75,89,100,9.22,PH,1690417987
272,masterton,-40.9597,175.6575,53.89,88,89,9.75,NZ,1690417987
273,paredon,16.0333,-93.8667,86.61,64,12,12.08,MX,1690417987
274,tamiahua,21.2667,-97.45,80.78,81,100,7.2,MX,1690417987
275,bonthe,7.5264,-12.505,76.01,92,99,5.01,SL,1690417895
276,severnoye,56.3491,78.3619,65.03,75,50,0.96,RU,1690417988
277,al kharijah,25.4514,30.5464,88.99,20,100,5.68,EG,1690417988
278,sinop,41.7711,34.8709,73.06,42,0,11.16,TR,1690417988
279,torghay,49.6339,63.4981,69.17,70,3,5.79,KZ,1690417988
280,walvis bay,-22.9575,14.5053,51.1,87,0,8.05,NA,1690417961
281,uspenskoye,44.8311,41.3927,66.27,75,0,9.08,RU,1690417989
282,camayenne,9.535,-13.6878,80.69,89,75,6.91,GN,1690417989
283,ribas do rio pardo,-20.4431,-53.7592,75.34,37,65,4.27,BR,1690417989
284,asau,46.4333,26.4,65.32,95,100,5.37,RO,1690417989
285,paita,-5.0892,-81.1144,71.55,80,42,16.78,PE,1690417990
286,gurupi,-11.7292,-49.0686,76.32,33,6,6.08,BR,1690417990
287,mopti,14.6667,-4.0,87.84,66,0,6.91,ML,1690417990
288,darwin,-12.4611,130.8418,75.88,54,0,5.01,AU,1690417907
289,chumphon,10.3333,98.8333,76.69,91,83,7.65,TH,1690417990
290,portland,45.5234,-122.6762,85.55,34,40,12.66,US,1690417697
291,hit,33.6416,42.8251,91.83,16,0,3.53,IQ,1690417991
292,veracruz,19.3333,-96.6667,72.25,93,85,1.14,MX,1690417921
293,marco island,25.9363,-81.7157,87.8,77,100,5.64,US,1690417991
294,vernon,50.2581,-119.2691,80.29,26,6,3.0,CA,1690417936
295,vilyuchinsk,52.9306,158.4028,73.67,77,99,6.2,RU,1690417991
296,whakatane,-37.9585,176.9854,53.78,72,99,2.91,NZ,1690417992
297,ceerigaabo,10.6162,47.368,61.21,69,46,19.53,SO,1690417992
298,lerwick,60.1545,-1.1494,50.0,86,0,2.95,GB,1690417992
299,lisala,2.15,21.5167,72.03,86,100,2.68,CD,1690417921
300,viedma,-40.8135,-62.9967,40.32,72,98,7.02,AR,1690417902
301,ust'-uda,54.1742,103.0304,67.14,69,10,7.05,RU,1690417993
302,argo,37.6333,22.7333,82.78,54,0,5.44,GR,1690417941
303,sirte,31.2089,16.5887,82.06,83,0,12.1,LY,1690417993
304,port douglas,-16.4833,145.4667,74.1,71,60,15.9,AU,1690417993
305,hammerfest,70.6634,23.6821,48.65,93,77,5.75,NO,1690417993
306,santo antonio,-6.3106,-35.4789,70.5,94,6,8.95,BR,1690417993
307,east ballina,-28.8667,153.5833,63.81,52,32,3.69,AU,1690417994
308,san borja,-14.8167,-66.85,73.78,82,63,3.58,BO,1690417994
309,mindelo,16.8901,-24.9804,78.35,78,20,14.97,CV,1690417994
310,yesan,36.6776,126.8427,82.08,71,40,2.13,KR,1690417994
311,kineshma,57.4391,42.1289,64.9,96,89,9.8,RU,1690417994
312,willis,30.4249,-95.4799,96.39,48,0,10.36,US,1690417995
313,ibshaway,29.358,30.6814,84.78,42,0,9.57,EG,1690417995
314,baruun-urt,46.6806,113.2792,70.5,47,39,8.3,MN,1690417995
315,selfoss,63.9331,-20.9971,51.04,73,100,9.06,IS,1690417995
316,amarante do maranhao,-5.5667,-46.7422,75.34,48,0,0.76,BR,1690417995
317,mitchell,43.7094,-98.0298,91.38,58,0,8.05,US,1690417996
318,aomori,40.8244,140.74,85.1,69,75,12.66,JP,1690417996
319,nyurba,63.2842,118.3319,61.84,57,93,6.06,RU,1690417996
320,korla,41.7597,86.1469,88.02,23,0,1.9,CN,1690417996
321,general roca,-39.0333,-67.5833,48.87,54,100,7.61,AR,1690417997
322,harnoli,32.2792,71.5539,90.46,61,0,3.04,PK,1690417997
323,al lagowa,11.4,29.1333,71.69,88,100,7.54,SD,1690417997
324,codajas,-3.8367,-62.0569,79.74,51,16,2.66,BR,1690417997
325,moultonborough,43.7548,-71.3967,76.82,79,100,1.99,US,1690417997
326,vila franca do campo,37.7167,-25.4333,68.41,84,21,4.47,PT,1690417726
327,krasnyy chikoy,50.3643,108.7512,64.96,78,80,2.73,RU,1690417998
328,beihai,21.4833,109.1,87.42,72,69,11.27,CN,1690417923
329,whangarei,-35.7317,174.3239,58.06,75,18,10.83,NZ,1690417902
330,pucheng,27.9233,118.5333,83.43,69,45,2.57,CN,1690417998
331,al jawf,29.5,38.75,83.44,17,20,8.16,SA,1690417998
332,eurajoki,61.2,21.7333,51.82,95,1,4.76,FI,1690417999
333,rabaul,-4.1967,152.1721,84.6,71,71,14.32,PG,1690417999
334,gebeit,21.0667,36.3167,87.78,38,15,12.64,SD,1690417999
335,pimentel,-6.8367,-79.9342,73.69,78,0,14.97,PE,1690417999
336,kuanda,56.3161,116.0806,74.73,62,73,0.81,RU,1690418001
337,cancun,21.1743,-86.8466,86.05,74,75,6.91,MX,1690417798
338,dassun,17.7204,121.6816,79.05,83,100,11.81,PH,1690418001
339,santa cruz,-17.8,-63.1667,67.46,60,75,14.97,BO,1690417786
340,alapayevsk,57.8516,61.6963,56.41,95,62,4.79,RU,1690418002
341,bandar lampung,-5.4254,105.258,76.86,81,23,4.14,ID,1690418002
342,hovd,48.0056,91.6419,71.73,31,100,3.42,MN,1690418002
343,hepo,23.4308,115.8299,82.99,79,100,5.97,CN,1690418002
344,livno,43.8269,17.0078,58.77,90,41,7.63,BA,1690418003
345,pytalovo,57.0679,27.9138,52.59,95,100,5.26,RU,1690418003
346,pudozh,61.8099,36.5345,54.1,98,96,3.27,RU,1690417995
347,tazacorte,28.629,-17.9293,74.37,86,75,13.8,ES,1690417710
348,vernal,40.4555,-109.5287,83.91,27,0,18.41,US,1690418003
349,gamba,-2.65,10.0,69.15,96,35,3.71,GA,1690418004
350,villa emilio carranza,19.9667,-96.6,81.59,79,100,4.99,MX,1690418004
351,namibe,-15.1961,12.1522,60.04,90,55,7.43,AO,1690418004
352,ebaye,8.7748,167.7392,86.02,74,100,3.44,MH,1690418005
353,grande prairie,55.1667,-118.8027,60.98,77,100,17.27,CA,1690417873
354,machico,32.7,-16.7667,72.23,79,20,5.75,PT,1690418005
355,nuuk,64.1835,-51.7216,41.61,100,100,12.66,GL,1690418005
356,scarborough,54.2797,-0.4044,57.65,91,100,10.0,GB,1690417932
357,zapadnaya dvina,56.259,32.0745,54.3,93,100,1.52,RU,1690418006
358,cascais,38.6979,-9.4215,67.51,76,74,30.0,PT,1690418006
359,bubaque,11.2833,-15.8333,81.73,81,100,11.97,GW,1690418006
360,canutama,-6.5339,-64.3831,78.01,52,89,3.11,BR,1690418006
361,sao tome,0.3365,6.7273,75.38,88,80,9.24,ST,1690418006
362,santa rosa de osos,6.6474,-75.4603,57.87,98,92,1.16,CO,1690418007
363,jiazi,22.8779,116.067,84.96,75,98,7.85,CN,1690418007
364,san juan de miraflores,-12.1629,-76.9635,66.16,85,67,9.55,PE,1690418007
365,pacific grove,36.6177,-121.9166,70.34,84,40,9.22,US,1690418007
366,lubang,13.8584,120.124,83.34,82,100,30.13,PH,1690418007
367,riolandia,-19.9808,-49.6819,76.86,32,94,4.18,BR,1690417923
368,kruisfontein,-34.0033,24.7314,51.89,85,95,9.8,ZA,1690418008
369,hinton,53.4001,-117.5857,54.16,85,100,4.72,CA,1690417753
370,ji'an,27.1172,114.9793,85.15,73,72,8.25,CN,1690418008
371,callao,-12.0667,-77.15,67.71,82,100,11.5,PE,1690418008
372,san buenaventura,27.0833,-101.5333,101.32,30,40,9.22,MX,1690418008
373,morehead city,34.7229,-76.726,84.24,83,20,8.05,US,1690418009
374,andergrove,-21.0833,149.1833,72.64,59,38,18.57,AU,1690418009
375,moyobamba,-6.05,-76.9667,72.39,77,100,1.21,PE,1690418009
376,zagora,30.3484,-5.8365,92.89,7,0,4.03,MA,1690418009
377,rudne,49.8333,23.9,52.66,96,100,14.97,UA,1690418009
378,port moresby,-9.4431,147.1797,82.42,67,22,9.48,PG,1690418010
379,swakopmund,-22.6833,14.5333,50.99,84,0,1.01,NA,1690417826
380,luganville,-15.5333,167.1667,72.72,83,100,13.04,VU,1690418010
381,prince george,53.9166,-122.753,69.26,54,100,8.05,CA,1690418010
382,zhezqazghan,47.7833,67.7667,64.98,63,40,13.42,KZ,1690418010
383,bishunpur urf maharajganj,26.2519,83.1186,87.1,65,100,9.89,IN,1690418011
384,kirovskoye,42.6198,71.5891,72.23,29,2,5.7,KG,1690418011
385,revda,56.801,59.9303,56.35,95,99,4.09,RU,1690417820
386,ar ruseris,11.8659,34.3869,73.2,87,95,8.3,SD,1690418011
387,wachtendonk,51.4092,6.3389,63.1,77,100,8.88,DE,1690418011
388,manokwari,-0.8667,134.0833,82.76,72,69,4.7,ID,1690418011
389,corner brook,48.9667,-57.9484,66.36,98,27,4.7,CA,1690417960
390,yaransk,57.3033,47.8861,62.35,95,24,10.76,RU,1690418012
391,touros,-5.1989,-35.4608,75.51,87,29,12.39,BR,1690418012
392,gualeguay,-33.1416,-59.3097,47.5,72,60,6.53,AR,1690418012
393,mukalla,14.5425,49.1242,83.62,69,38,4.05,YE,1690418012
394,quelimane,-17.8786,36.8883,66.15,94,0,2.3,MZ,1690418013
395,palmer,42.1584,-72.3287,79.41,73,100,1.99,US,1690418013
396,elk city,35.412,-99.4043,98.58,24,0,14.97,US,1690418013
397,mawlamyinegyunn,16.3833,95.2667,80.96,87,93,6.85,MM,1690418013
398,solwezi,-12.1688,26.3894,52.59,60,4,3.22,ZM,1690417893
399,patnongon,10.9132,121.9937,82.29,80,100,15.66,PH,1690418013
400,kargasok,59.0556,80.8572,62.29,89,17,6.58,RU,1690417831
401,acucena,-19.0731,-42.5464,64.92,95,38,2.44,BR,1690418014
402,sarikei,2.1167,111.5167,82.51,69,20,5.21,MY,1690418014
403,ialibu,-6.2821,143.9935,65.12,72,83,4.07,PG,1690418014
404,matoury,4.8483,-52.3317,76.96,94,75,0.0,GF,1690418014
405,mata-utu,-13.2816,-176.1745,79.5,78,100,16.87,WF,1690418014
406,zahir pir,28.8124,70.524,84.7,81,100,6.89,PK,1690418015
407,bani walid,31.7566,13.9942,75.34,78,0,10.18,LY,1690418015
408,sabha,27.0377,14.4283,90.73,9,3,11.25,LY,1690418015
409,isiro,2.7739,27.616,66.61,98,100,2.57,CD,1690418015
410,zag,46.9441,99.165,61.43,45,80,0.31,MN,1690418016
411,tolanaro,-25.0319,46.9987,62.67,88,75,5.75,MG,1690418016
412,wanning,18.8003,110.3967,85.86,69,100,3.85,CN,1690418016
413,kaa-khem,51.6833,94.7333,63.64,65,100,3.09,RU,1690418016
414,yaren,-0.5472,166.916,83.91,75,41,9.46,NR,1690418016
415,mount isa,-20.7333,139.5,71.37,64,40,12.66,AU,1690418017
416,le blanc,46.6667,1.1667,61.2,97,0,6.98,FR,1690418017
417,south hedland,-20.4089,118.5983,66.13,59,32,5.75,AU,1690418017
418,concordia,-31.393,-58.0209,48.78,94,99,5.99,AR,1690417803
419,turpan,42.9333,89.1667,102.27,9,0,1.63,CN,1690418017
420,jimenez,28.3333,-105.4,98.06,15,16,5.77,MX,1690418017
421,yeppoon,-23.1333,150.7333,67.78,67,43,16.15,AU,1690418018
422,geraldton,-28.7667,114.6,48.61,100,40,8.05,AU,1690418018
423,lorengau,-2.0226,147.2712,83.48,78,100,14.12,PG,1690418018
424,pierre,44.3683,-100.351,90.52,37,40,8.05,US,1690418018
425,isangel,-19.55,169.2667,75.31,60,40,10.36,VU,1690418018
426,tezu,27.9167,96.1667,78.89,85,97,1.05,IN,1690418019
427,santo antonio do ica,-3.1022,-67.9397,80.82,71,100,1.05,BR,1690418019
428,harstad,68.799,16.5293,52.16,94,44,4.74,NO,1690417941
429,rio preto da eva,-2.6994,-59.6997,79.2,56,30,2.82,BR,1690418019
430,nyakahanga,-1.6033,31.1414,58.23,43,67,3.44,TZ,1690418019
431,ghadamis,30.1337,9.5007,91.74,24,0,10.98,LY,1690418020
432,belyy yar,53.6039,91.3903,58.89,94,11,0.0,RU,1690418020
433,praia da vitoria,38.7333,-27.0667,71.85,83,20,6.26,PT,1690418020
434,lata,40.1629,-8.3327,63.07,94,76,3.65,PT,1690418020
435,bordj zemoura,36.2746,4.8567,71.11,57,0,2.82,DZ,1690418020
436,mezhdurechensk,53.6942,88.0603,64.08,72,92,2.3,RU,1690418020
437,afif,23.9065,42.9172,82.81,18,26,10.45,SA,1690417969
438,tadine,-21.55,167.8833,70.45,57,54,18.37,NC,1690418021
439,okhotsk,59.3833,143.3,62.15,86,97,3.0,RU,1690417935
440,carnarvon,-24.8667,113.6333,61.57,52,37,12.84,AU,1690418021
441,envira,-7.3,-70.2167,76.35,56,5,1.81,BR,1690418021
442,zhangye,38.9342,100.4517,82.27,26,100,5.06,CN,1690418021
443,minas de marcona,-15.2119,-75.1103,53.92,87,48,12.73,PE,1690418022
444,yashkul',46.1711,45.3435,75.04,49,0,6.11,RU,1690418022
445,usinsk,65.9939,57.5281,59.45,90,76,4.61,RU,1690418022
446,"laikit, laikit ii (dimembe)",1.4792,124.9735,83.25,62,20,12.66,ID,1690418022
447,agat village,13.3886,144.6585,78.96,93,100,5.01,GU,1690418022
448,hun,29.1268,15.9477,88.23,14,0,0.56,LY,1690418022
449,novodvinsk,64.4165,40.8122,57.33,90,100,3.53,RU,1690418023
450,killingly center,41.8387,-71.8692,79.34,80,99,5.99,US,1690418023
451,mhamid,29.82,-5.72,96.01,6,0,7.29,MA,1690418023
452,esztergom,47.7928,18.7415,58.89,85,14,5.77,HU,1690418023
453,rawlins,41.7911,-107.2387,78.69,29,0,21.85,US,1690418023
454,roma,43.2128,-75.4557,80.82,70,0,4.61,US,1690418023
455,sanga-sanga,5.0725,119.7853,82.69,79,100,19.22,PH,1690418024
456,cleveland,41.4995,-81.6954,78.69,85,0,12.66,US,1690417973
457,borzya,50.3833,116.5167,69.57,63,0,7.47,RU,1690417935
458,pucon,-39.2822,-71.9543,40.78,92,96,3.96,CL,1690418024
459,ancud,-41.8697,-73.8203,46.36,90,100,4.99,CL,1690418024
460,kapa'a,22.0752,-159.319,86.32,72,20,13.8,US,1690418024
461,kailua-kona,19.6406,-155.9956,85.96,80,75,13.8,US,1690418025
462,paphos,34.7667,32.4167,78.58,36,0,8.05,CY,1690418025
463,ugoofaaru,5.6667,73.0,82.2,73,100,2.66,MV,1690418025
464,neiafu,-18.65,-173.9833,75.88,69,75,5.75,TO,1690418025
465,bodo,67.28,14.405,58.77,90,0,3.44,NO,1690417796
466,puerto baquerizo moreno,-0.9,-89.6,75.33,80,100,11.92,EC,1690418025
467,betio village,1.358,172.9211,87.84,75,14,6.67,KI,1690418025
468,yarmouth,41.7057,-70.2286,76.96,82,0,9.22,US,1690418026
469,keflavik,64.0049,-22.5624,51.71,87,75,4.61,IS,1690418026
470,tromso,69.6496,18.957,53.38,87,75,11.5,NO,1690418026
471,smithers,54.7804,-127.1743,66.52,48,75,12.66,CA,1690418008
472,boden,65.8252,21.6886,60.8,94,94,3.51,SE,1690418026
473,rosario do sul,-30.2583,-54.9142,50.0,93,9,4.88,BR,1690418026
474,ta`u,-14.2336,-169.5144,78.28,72,86,10.89,AS,1690418027
475,mezhdurechenskiy,59.6,65.9333,60.12,85,54,4.85,RU,1690418027
476,colchani,-20.3,-66.9333,40.21,23,0,6.33,BO,1690418027
477,fauske,67.2588,15.3918,59.77,85,85,0.98,NO,1690418027
478,aripuana,-9.1667,-60.6333,75.67,53,9,1.48,BR,1690418027
479,novomichurinsk,54.0384,39.7479,64.71,90,6,6.04,RU,1690418028
480,kilindoni,-7.9139,39.6668,77.41,75,86,17.72,TZ,1690418028
481,perryton,36.4,-100.8027,89.53,25,0,13.8,US,1690417761
482,ulladulla,-35.35,150.4667,63.68,34,0,6.06,AU,1690417947
483,turabah,21.2141,41.6331,80.78,18,6,7.7,SA,1690418028
484,angaur state,6.906,134.13,79.59,84,100,19.51,PW,1690418028
485,sayhat,26.4852,50.0405,89.8,41,44,2.53,SA,1690418029
486,lamu,-2.2717,40.902,73.62,83,100,13.27,KE,1690418029
487,egersund,58.4513,5.9997,58.08,91,100,8.21,NO,1690418029
488,nieuw amsterdam,5.8833,-55.0833,79.02,87,100,6.87,SR,1690418029
489,wucheng,29.6008,118.175,84.96,66,5,5.32,CN,1690418030
490,arica,-18.475,-70.3042,65.75,72,100,8.05,CL,1690418030
491,safonovo,55.15,33.2167,56.93,93,98,1.52,RU,1690418030
492,kharan,28.5833,65.4167,80.33,73,98,0.92,PK,1690418030
493,pangoa,-12.1167,-73.0,75.72,64,100,2.73,PE,1690418031
494,eyl,7.9803,49.8164,76.69,68,83,23.42,SO,1690418031
495,kangding,30.0513,101.9603,65.53,85,74,1.79,CN,1690418031
496,castillos,-34.1667,-53.8333,49.64,80,0,13.78,UY,1690418031
497,irymple,-34.25,142.1667,60.1,64,0,1.99,AU,1690418032
498,ciudad lazaro cardenas,17.9583,-102.2,84.97,70,23,6.2,MX,1690418032
499,owase,34.0667,136.2,88.16,65,100,4.56,JP,1690418032
500,koryazhma,61.3143,47.1691,59.27,97,100,6.51,RU,1690418032
501,okola,4.0167,11.3833,69.84,98,100,3.8,CM,1690418032
502,arauca,7.0847,-70.7591,84.2,83,40,2.3,CO,1690418033
503,pankrushikha,53.8319,80.3406,69.26,51,100,5.32,RU,1690418033
504,havre,49.5833,0.3333,65.97,88,100,13.8,FR,1690418033
505,hasaki,35.7333,140.8333,91.29,74,14,10.45,JP,1690417906
506,jianjiang,26.5497,119.755,81.99,89,88,22.97,CN,1690418034
507,melfi,40.9965,15.6514,64.49,80,4,4.43,IT,1690418034
508,bambari,5.768,20.6757,70.21,97,100,2.13,CF,1690418034
509,wenatchee,47.4235,-120.3103,87.62,25,0,5.75,US,1690418034
510,conduaga,8.862,117.4893,83.57,76,76,13.09,PH,1690418034
511,piti village,13.4626,144.6933,78.89,92,100,15.21,GU,1690418034
512,la sierpe,2.8518,-77.6155,77.67,92,90,2.28,CO,1690418035
513,uruguaiana,-29.7547,-57.0883,51.73,93,40,8.05,BR,1690417923
514,mikun',62.3547,50.0771,55.94,81,100,5.14,RU,1690418035
515,esbjerg,55.4667,8.45,56.91,85,20,9.22,DK,1690418035
516,naxos,37.1056,25.3764,84.16,76,5,5.01,GR,1690418035
517,muromtsevo,56.3724,75.2418,64.38,80,4,2.46,RU,1690418035
518,midvagur,62.0511,-7.1939,49.03,76,100,3.44,FO,1690417809
519,mglin,53.0591,32.8475,60.28,95,100,3.78,RU,1690418036
520,san cristobal,7.7669,-72.225,77.18,99,100,3.33,VE,1690418036
521,phan rang-thap cham,11.5667,108.9833,84.9,68,100,6.71,VN,1690418036
522,sipalay,9.75,122.5,81.86,84,100,14.74,PH,1690418036
523,labytnangi,66.6572,66.4183,61.9,88,98,10.94,RU,1690418036
524,borba,-4.3878,-59.5939,78.89,54,6,3.0,BR,1690418036
525,rio pardo de minas,-15.6097,-42.5397,63.75,92,23,6.44,BR,1690418037
526,al khums,32.6486,14.2619,79.95,73,0,14.47,LY,1690418037
527,funafuti,-8.5243,179.1942,87.8,84,100,10.36,TV,1690418037
528,hithadhoo,-0.6,73.0833,82.69,78,6,16.26,MV,1690418037
529,zhangjiajie,29.1294,110.4783,81.23,86,99,3.15,CN,1690418037
530,lai,9.3952,16.2989,72.48,82,99,3.78,TD,1690418037
531,xinxiang,35.3089,113.8672,88.72,53,35,4.88,CN,1690418038
532,ivanec,46.2231,16.12,52.29,94,7,2.21,HR,1690418038
533,arkhangel'sk,64.5401,40.5433,57.85,87,100,3.58,RU,1690418038
534,kapit,2.0167,112.9333,82.63,72,72,1.25,MY,1690417873
535,baiao,-2.7906,-49.6717,78.67,66,60,0.58,BR,1690418038
536,tomatlan,19.9333,-105.25,85.1,68,86,3.58,MX,1690418039
537,fort bragg,35.139,-79.006,90.18,74,75,10.36,US,1690418039
538,medina,24.4686,39.6142,95.43,10,0,4.61,SA,1690418039
539,holma,9.9008,13.0567,74.61,68,100,1.45,NG,1690418039
540,whitburn,54.9533,-1.3686,59.14,93,100,9.95,GB,1690418039
541,nadi,-17.8,177.4167,69.8,94,100,5.75,FJ,1690418040
542,aldinga beach,-35.2793,138.4604,63.75,56,85,13.53,AU,1690418040
543,springbok,-29.6643,17.8865,40.69,89,0,4.18,ZA,1690418040
544,sao jose da coroa grande,-8.8978,-35.1478,74.07,85,39,5.97,BR,1690418040
545,sur,22.5667,59.5289,81.88,76,65,13.67,OM,1690418040
546,mokhsogollokh,61.4681,128.9203,69.33,48,100,2.71,RU,1690417935
547,lib,8.3122,167.3766,83.05,76,70,8.72,MH,1690418040
548,nelson bay,-32.7167,152.15,63.0,80,0,5.01,AU,1690418041
549,natal,-5.795,-35.2094,77.65,94,75,9.22,BR,1690418016
550,mahina,-17.5065,-149.489,76.77,88,75,9.22,PF,1690417951
551,joinville,-26.3044,-48.8456,66.11,100,75,3.44,BR,1690418041
552,urengoy,65.9667,78.3667,71.47,63,98,4.63,RU,1690418041
553,mantua,45.1667,10.7833,68.95,76,7,10.0,IT,1690418041
554,cannonvale,-20.2833,148.7,69.19,64,100,19.93,AU,1690418042
555,katsuura,35.1333,140.3,83.52,72,12,7.67,JP,1690418042
556,huarmey,-10.0681,-78.1522,68.61,81,86,10.74,PE,1690418042
557,berwick-upon-tweed,55.7833,-2.0,56.43,92,100,11.79,GB,1690418042
558,dryden,49.7833,-92.7503,80.89,65,75,5.75,CA,1690418043
559,beloyarskiy,63.7119,66.6722,58.03,97,100,4.99,RU,1690418044
560,alpine,32.835,-116.7664,100.96,34,0,4.0,US,1690418045
561,mbouda,5.6258,10.2552,62.42,96,100,2.75,CM,1690418045
562,brisas de zicatela,15.8369,-97.0419,86.52,58,100,6.91,MX,1690418045
563,champerico,14.3,-91.9167,90.14,72,6,7.47,GT,1690418048
564,savanna-la-mar,18.219,-78.1332,85.95,84,27,3.11,JM,1690418049
565,san ignacio de velasco,-16.3667,-60.95,74.64,53,60,5.66,BO,1690418049
566,shatsk,54.0258,41.7119,65.1,93,6,7.61,RU,1690418051
567,kulhudhuffushi,6.6221,73.07,81.66,75,100,4.92,MV,1690418051
568,cienfuegos,22.1461,-80.4356,75.34,100,77,5.75,CU,1690418051
569,harbatpur,30.45,77.7333,78.89,83,96,1.57,IN,1690418051
570,lazaro cardenas,17.9583,-102.2,84.97,70,23,6.2,MX,1690418032
571,bornu yassu,12.2774,12.5552,84.04,50,94,10.85,NG,1690418052
572,buta,2.7858,24.73,68.99,98,100,3.62,CD,1690418052
573,issia,6.4922,-6.5856,71.58,100,98,2.59,CI,1690418052
574,la rinconada,37.4873,-5.9826,71.98,75,0,5.75,ES,1690418053
